{"type": "FeatureCollection", "features": [{"type": "Feature", "properties": {"name": "Metro L1-2", "ref": "L1", "stroke": "#0033cc"}, "geometry": {"coordinates": [[3.0623351, 36.785489], [3.0586052, 36.7802085], [3.0581852, 36.7720017], [3.0536627, 36.7662321], [3.0566104, 36.7601908], [3.0617531, 36.7568509], [3.0665223, 36.752896], [3.0727058, 36.74667], [3.0831356, 36.7421437], [3.0944401, 36.737895], [3.1009505, 36.7335722], [3.1019237, 36.7269129], [3.1020082, 36.7266023], [3.1021326, 36.7261265], [3.1021851, 36.7259258], [3.1023151, 36.7254411], [3.1024325, 36.7249292], [3.102514, 36.7245898], [3.1026768, 36.7240387], [3.1027923, 36.7237565], [3.1028584, 36.7235513], [3.1029026, 36.7233681], [3.1030045, 36.7230424], [3.103354, 36.7217819], [3.1035239, 36.7211617], [3.103609, 36.7208237], [3.1036295, 36.7206117], [3.103624, 36.7203718], [3.1035924, 36.7201861], [3.1035506, 36.720033], [3.1034862, 36.7198516], [3.1034003, 36.7196726], [3.1032805, 36.7194734], [3.1029633, 36.7190229], [3.1016073, 36.71708], [3.1013773, 36.7167452], [3.1012769, 36.7165905], [3.101138, 36.7163182], [3.1010117, 36.7159896], [3.1008295, 36.71552], [3.1006368, 36.7150345], [3.1004688, 36.7145384], [3.1003755, 36.714385], [3.1002951, 36.7142844], [3.100182, 36.7141418], [3.100004, 36.7139662], [3.099796, 36.7137935], [3.0995413, 36.7136376], [3.0990265, 36.7133818], [3.0963968, 36.7125357], [3.0951624, 36.7120931], [3.0942784, 36.7117095], [3.0902229, 36.7095843], [3.0895171, 36.7092587], [3.0871506, 36.7081672], [3.0843221, 36.7067593], [3.0822858, 36.7057374]], "type": "LineString"}}, {"type": "Feature", "properties": {"name": "Metro L1R-2", "ref": "L1", "stroke": "#0033cc"}, "geometry": {"coordinates": [[3.0822858, 36.7057374], [3.0843221, 36.7067593], [3.0871506, 36.7081672], [3.0895171, 36.7092587], [3.0902229, 36.7095843], [3.0942784, 36.7117095], [3.0951624, 36.7120931], [3.0963968, 36.7125357], [3.0990265, 36.7133818], [3.0995413, 36.7136376], [3.099796, 36.7137935], [3.100004, 36.7139662], [3.100182, 36.7141418], [3.1002951, 36.7142844], [3.1003755, 36.714385], [3.1004688, 36.7145384], [3.1006368, 36.7150345], [3.1008295, 36.71552], [3.1010117, 36.7159896], [3.101138, 36.7163182], [3.1012769, 36.7165905], [3.1013773, 36.7167452], [3.1016073, 36.71708], [3.1029633, 36.7190229], [3.1032805, 36.7194734], [3.1034003, 36.7196726], [3.1034862, 36.7198516], [3.1035506, 36.720033], [3.1035924, 36.7201861], [3.103624, 36.7203718], [3.1036295, 36.7206117], [3.103609, 36.7208237], [3.1035239, 36.7211617], [3.103354, 36.7217819], [3.1030045, 36.7230424], [3.1029026, 36.7233681], [3.1028584, 36.7235513], [3.1027923, 36.7237565], [3.1026768, 36.7240387], [3.102514, 36.7245898], [3.1024325, 36.7249292], [3.1023151, 36.7254411], [3.1021851, 36.7259258], [3.1021326, 36.7261265], [3.1020082, 36.7266023], [3.1019237, 36.7269129], [3.1018701, 36.7273665], [3.1018889, 36.7274891], [3.1009505, 36.7335722], [3.0944401, 36.737895], [3.0831356, 36.7421437], [3.0727058, 36.74667], [3.0665223, 36.752896], [3.0617531, 36.7568509], [3.0566104, 36.7601908], [3.0536627, 36.7662321], [3.0581852, 36.7720017], [3.0586052, 36.7802085], [3.0623351, 36.785489]], "type": "LineString"}}, {"type": "Feature", "properties": {"name": "Metro L1R", "ref": "L1", "stroke": "#0033cc"}, "geometry": {"coordinates": [[3.1376135, 36.7220982], [3.1371597, 36.7220279], [3.1365719, 36.72195], [3.1354482, 36.7217985], [3.1343471, 36.7216541], [3.1339608, 36.7216075], [3.1336055, 36.7216131], [3.1333322, 36.7216583], [3.1326192, 36.7218313], [3.131737, 36.7221154], [3.1313642, 36.7222163], [3.1308224, 36.7223194], [3.1303152, 36.722348], [3.1283821, 36.7222749], [3.1280271, 36.7222865], [3.127713, 36.722335], [3.1270332, 36.7225563], [3.1262372, 36.7228667], [3.1259, 36.7229525], [3.1254725, 36.7230071], [3.125165, 36.7230308], [3.1248116, 36.7230069], [3.1239716, 36.722817], [3.1207017, 36.7222829], [3.1201787, 36.7221924], [3.119683, 36.7221127], [3.1190786, 36.7220154], [3.118266, 36.721831], [3.1178458, 36.7217471], [3.1159499, 36.7214128], [3.1157529, 36.7213466], [3.115507, 36.7212478], [3.1153336, 36.7211438], [3.1140712, 36.7201734], [3.1124855, 36.7188196], [3.112294, 36.7186789], [3.1121307, 36.7185828], [3.1119594, 36.7185141], [3.1117591, 36.7184618], [3.1105834, 36.7182408], [3.1094274, 36.7180424], [3.1090843, 36.7179991], [3.1087973, 36.7179736], [3.1086083, 36.7179652], [3.1083127, 36.7179736], [3.1080434, 36.7179985], [3.1077835, 36.7180819], [3.1074878, 36.7181919], [3.107172, 36.7183522], [3.1069281, 36.7185138], [3.1062919, 36.7189723], [3.1055374, 36.7194792], [3.1047152, 36.7200904], [3.1043081, 36.7203898], [3.1041402, 36.7205368], [3.1040354, 36.7206578], [3.1039404, 36.7207848], [3.1038046, 36.7209897], [3.1037214, 36.7211512], [3.1035891, 36.7214551], [3.1035165, 36.7217305], [3.103314, 36.7225098], [3.1030148, 36.72359], [3.1029609, 36.7237791], [3.1027459, 36.7245628], [3.1026665, 36.7249857], [3.102524, 36.7254724], [3.1023812, 36.7259602], [3.1022605, 36.7263769], [3.1021947, 36.7265488], [3.1020634, 36.7267765], [3.1019613, 36.7271408], [3.1019264, 36.7273407], [3.1019049, 36.7274447], [3.1018889, 36.7274891], [3.1009505, 36.7335722], [3.0944401, 36.737895], [3.0831356, 36.7421437], [3.0727058, 36.74667], [3.0665223, 36.752896], [3.0617531, 36.7568509], [3.0566104, 36.7601908], [3.0536627, 36.7662321], [3.0581852, 36.7720017], [3.0586052, 36.7802085], [3.0623351, 36.785489]], "type": "LineString"}}, {"type": "Feature", "properties": {"name": "Metro L1", "ref": "L1", "stroke": "#0033cc"}, "geometry": {"coordinates": [[3.0623351, 36.785489], [3.0586052, 36.7802085], [3.0581852, 36.7720017], [3.0536627, 36.7662321], [3.0566104, 36.7601908], [3.0617531, 36.7568509], [3.0665223, 36.752896], [3.0727058, 36.74667], [3.0831356, 36.7421437], [3.0944401, 36.737895], [3.1009505, 36.7335722], [3.1020634, 36.7267765], [3.1020981, 36.7266529], [3.1022272, 36.7261825], [3.1024238, 36.7254587], [3.1026774, 36.7245246], [3.1027222, 36.7241811], [3.1027916, 36.7239596], [3.1028414, 36.7237662], [3.1029042, 36.7235595], [3.1029757, 36.723293], [3.1034173, 36.7216838], [3.1035084, 36.7214007], [3.1036332, 36.7211256], [3.103719, 36.7209655], [3.1039068, 36.7207103], [3.1041113, 36.7205011], [3.1042841, 36.7203472], [3.1046767, 36.7200578], [3.1055148, 36.71945], [3.1062419, 36.7189447], [3.1068923, 36.7184792], [3.107139, 36.7183158], [3.1074609, 36.7181524], [3.1077613, 36.7180406], [3.1080295, 36.7179546], [3.1083085, 36.7179288], [3.1086089, 36.7179202], [3.108802, 36.7179288], [3.1090917, 36.7179546], [3.1094376, 36.7179982], [3.1105957, 36.718197], [3.1117742, 36.7184185], [3.1119807, 36.7184724], [3.11216, 36.7185443], [3.1123296, 36.7186441], [3.1125249, 36.7187876], [3.114111, 36.7201418], [3.1153699, 36.7211095], [3.1155366, 36.7212094], [3.1157763, 36.7213058], [3.1159669, 36.7213698], [3.1178586, 36.7217034], [3.1182804, 36.7217876], [3.1190918, 36.7219717], [3.1201901, 36.7221484], [3.1204066, 36.7221859], [3.120474, 36.7221975], [3.1207132, 36.7222389], [3.1231644, 36.7226393], [3.1239848, 36.7227733], [3.1248217, 36.7229625], [3.1251647, 36.7229857], [3.1254654, 36.7229625], [3.125887, 36.7229087], [3.1262164, 36.7228249], [3.1270104, 36.7225153], [3.127697, 36.7222917], [3.1280206, 36.7222418], [3.1283823, 36.7222299], [3.1303146, 36.722303], [3.1308139, 36.7222749], [3.1313487, 36.7221731], [3.1317176, 36.7220733], [3.1326006, 36.7217889], [3.1333184, 36.7216147], [3.1335992, 36.7215683], [3.1339644, 36.7215625], [3.1343558, 36.7216097], [3.1354574, 36.7217542], [3.1365811, 36.7219057], [3.1371696, 36.7219837], [3.1376241, 36.7220541]], "type": "LineString"}}, {"type": "Feature", "properties": {"marker-symbol": "circle", "marker-size": "small"}, "geometry": {"coordinates": [3.0581852, 36.7720017], "type": "Point"}}, {"type": "Feature", "properties": {"marker-symbol": "circle", "marker-size": "small"}, "geometry": {"coordinates": [3.0536627, 36.7662321], "type": "Point"}}, {"type": "Feature", "properties": {"marker-symbol": "circle", "marker-size": "small"}, "geometry": {"coordinates": [3.1105834, 36.7182408], "type": "Point"}}, {"type": "Feature", "properties": {"marker-symbol": "circle", "marker-size": "small"}, "geometry": {"coordinates": [3.0727058, 36.74667], "type": "Point"}}, {"type": "Feature", "properties": {"marker-symbol": "circle", "marker-size": "small"}, "geometry": {"coordinates": [3.1009505, 36.7335722], "type": "Point"}}, {"type": "Feature", "properties": {"marker-symbol": "circle", "marker-size": "small"}, "geometry": {"coordinates": [3.1182804, 36.7217876], "type": "Point"}}, {"type": "Feature", "properties": {"marker-symbol": "circle", "marker-size": "small"}, "geometry": {"coordinates": [3.0566104, 36.7601908], "type": "Point"}}, {"type": "Feature", "properties": {"marker-symbol": "circle", "marker-size": "small"}, "geometry": {"coordinates": [3.102524, 36.7254724], "type": "Point"}}, {"type": "Feature", "properties": {"marker-symbol": "circle", "marker-size": "small"}, "geometry": {"coordinates": [3.0822858, 36.7057374], "type": "Point"}}, {"type": "Feature", "properties": {"marker-symbol": "circle", "marker-size": "small"}, "geometry": {"coordinates": [3.1105957, 36.718197], "type": "Point"}}, {"type": "Feature", "properties": {"marker-symbol": "circle", "marker-size": "small"}, "geometry": {"coordinates": [3.0617531, 36.7568509], "type": "Point"}}, {"type": "Feature", "properties": {"marker-symbol": "circle", "marker-size": "small"}, "geometry": {"coordinates": [3.1371696, 36.7219837], "type": "Point"}}, {"type": "Feature", "properties": {"marker-symbol": "circle", "marker-size": "small"}, "geometry": {"coordinates": [3.0586052, 36.7802085], "type": "Point"}}, {"type": "Feature", "properties": {"marker-symbol": "circle", "marker-size": "small"}, "geometry": {"coordinates": [3.0623351, 36.785489], "type": "Point"}}, {"type": "Feature", "properties": {"marker-symbol": "circle", "marker-size": "small"}, "geometry": {"coordinates": [3.0902229, 36.7095843], "type": "Point"}}, {"type": "Feature", "properties": {"marker-symbol": "circle", "marker-size": "small"}, "geometry": {"coordinates": [3.1023151, 36.7254411], "type": "Point"}}, {"type": "Feature", "properties": {"marker-symbol": "circle", "marker-size": "small"}, "geometry": {"coordinates": [3.118266, 36.721831], "type": "Point"}}, {"type": "Feature", "properties": {"marker-symbol": "circle", "marker-size": "small"}, "geometry": {"coordinates": [3.0665223, 36.752896], "type": "Point"}}, {"type": "Feature", "properties": {"marker-symbol": "circle", "marker-size": "small"}, "geometry": {"coordinates": [3.0831356, 36.7421437], "type": "Point"}}, {"type": "Feature", "properties": {"marker-symbol": "circle", "marker-size": "small"}, "geometry": {"coordinates": [3.131737, 36.7221154], "type": "Point"}}, {"type": "Feature", "properties": {"marker-symbol": "circle", "marker-size": "small"}, "geometry": {"coordinates": [3.1024238, 36.7254587], "type": "Point"}}, {"type": "Feature", "properties": {"marker-symbol": "circle", "marker-size": "small"}, "geometry": {"coordinates": [3.1371597, 36.7220279], "type": "Point"}}, {"type": "Feature", "properties": {"marker-symbol": "circle", "marker-size": "small"}, "geometry": {"coordinates": [3.0944401, 36.737895], "type": "Point"}}, {"type": "Feature", "properties": {"marker-symbol": "circle", "marker-size": "small"}, "geometry": {"coordinates": [3.1008295, 36.71552], "type": "Point"}}, {"type": "Feature", "properties": {"marker-symbol": "circle", "marker-size": "small"}, "geometry": {"coordinates": [3.1317176, 36.7220733], "type": "Point"}}, {"type": "Feature", "properties": {"marker-size": "small", "name": "Cit\u00e9 Amirouche", "marker-color": "#797979"}, "geometry": {"coordinates": [3.0944401, 36.737895], "type": "Point"}}, {"type": "Feature", "properties": {"marker-size": "small", "name": "Ali Boumendjel", "marker-color": "#797979"}, "geometry": {"coordinates": [3.0586052, 36.7802085], "type": "Point"}}, {"type": "Feature", "properties": {"marker-size": "small", "name": "El-Harrach Centre", "marker-color": "#797979"}, "geometry": {"coordinates": [3.13716465, 36.722005800000005], "type": "Point"}}, {"type": "Feature", "properties": {"marker-size": "small", "name": "Tafourah - Grande Poste", "marker-color": "#797979"}, "geometry": {"coordinates": [3.0581852, 36.7720017], "type": "Point"}}, {"type": "Feature", "properties": {"marker-size": "small", "name": "Jardin d'essai", "marker-color": "#797979"}, "geometry": {"coordinates": [3.0727058, 36.74667], "type": "Point"}}, {"type": "Feature", "properties": {"marker-size": "small", "name": "Gu\u00e9 de Constantine", "marker-color": "#797979"}, "geometry": {"coordinates": [3.0902229, 36.7095843], "type": "Point"}}, {"type": "Feature", "properties": {"marker-size": "small", "name": "Place des Martyrs", "marker-color": "#797979"}, "geometry": {"coordinates": [3.0624485, 36.7868857], "type": "Point"}}, {"type": "Feature", "properties": {"marker-size": "small", "name": "Station des Ateliers", "marker-color": "#797979"}, "geometry": {"coordinates": [3.1008295, 36.71552], "type": "Point"}}, {"type": "Feature", "properties": {"marker-size": "small", "name": "Bachdjarah - Tennis", "marker-color": "#797979"}, "geometry": {"coordinates": [3.1105895500000003, 36.7182189], "type": "Point"}}, {"type": "Feature", "properties": {"marker-size": "small", "name": "1er Mai", "marker-color": "#797979"}, "geometry": {"coordinates": [3.0569153875, 36.76024381249999], "type": "Point"}}, {"type": "Feature", "properties": {"marker-size": "small", "name": "Bachdjerrah", "marker-color": "#797979"}, "geometry": {"coordinates": [3.1182732, 36.721809300000004], "type": "Point"}}, {"type": "Feature", "properties": {"marker-size": "small", "name": "El Harrach Gare", "marker-color": "#797979"}, "geometry": {"coordinates": [3.1317273, 36.72209435], "type": "Point"}}, {"type": "Feature", "properties": {"marker-size": "small", "name": "Mer et Soleil", "marker-color": "#797979"}, "geometry": {"coordinates": [3.1009505, 36.7335722], "type": "Point"}}, {"type": "Feature", "properties": {"marker-size": "small", "name": "Les fusill\u00e9s", "marker-color": "#797979"}, "geometry": {"coordinates": [3.0831356, 36.7421437], "type": "Point"}}, {"type": "Feature", "properties": {"marker-size": "small", "name": "Ain Na\u00e2dja", "marker-color": "#797979"}, "geometry": {"coordinates": [3.0822858, 36.7057374], "type": "Point"}}, {"type": "Feature", "properties": {"marker-size": "small", "name": "Ha\u00ef El Badr", "marker-color": "#797979"}, "geometry": {"coordinates": [3.102369735714286, 36.725442310714286], "type": "Point"}}, {"type": "Feature", "properties": {"marker-size": "small", "name": "A\u00efssat Idir", "marker-color": "#797979"}, "geometry": {"coordinates": [3.0617531, 36.7568509], "type": "Point"}}, {"type": "Feature", "properties": {"marker-size": "small", "name": "Hamma", "marker-color": "#797979"}, "geometry": {"coordinates": [3.0665223, 36.752896], "type": "Point"}}, {"type": "Feature", "properties": {"marker-size": "small", "name": "Khelifa Boukhalfa", "marker-color": "#797979"}, "geometry": {"coordinates": [3.0536627, 36.7662321], "type": "Point"}}]}